{"meta":{"code":200,"requestId":"5b63d6fadd5797469b586dae"},"response":{"venues":[{"id":"4edf4b52e300bf196af8f474","name":"My Friends Circle Restuarant","contact":{},"location":{"address":"Suchitra X Rds","lat":17.49935227899768,"lng":78.47704487860565,"labeledLatLngs":[{"label":"display","lat":17.49935227899768,"lng":78.47704487860565}],"distance":10104,"cc":"IN","country":"India","formattedAddress":["Suchitra X Rds","India"]},"categories":[{"id":"4bf58dd8d48988d1c4941735","name":"Restaurant","pluralName":"Restaurants","shortName":"Restaurant","icon":{"prefix":"https:\/\/ss3.4sqi.net\/img\/categories_v2\/food\/default_","suffix":".png"},"primary":true}],"verified":false,"stats":{"tipCount":0,"usersCount":0,"checkinsCount":0,"visitsCount":0},"beenHere":{"count":0,"lastCheckinExpiredAt":0,"marked":false,"unconfirmedCount":0},"hereNow":{"count":0,"summary":"Nobody here","groups":[]},"referralId":"v-1533269754","venueChains":[],"hasPerk":false},{"id":"4ce2ac39ffcf3704ea272d82","name":"Bombay Bar & Restuarant","contact":{},"location":{"address":"Ameerpet","lat":17.432899916052236,"lng":78.44626648167922,"labeledLatLngs":[{"label":"display","lat":17.432899916052236,"lng":78.44626648167922}],"distance":2017,"cc":"IN","city":"Hyderabad","state":"Telangana","country":"India","formattedAddress":["Ameerpet","Hyderabad","Telangana","India"]},"categories":[{"id":"4bf58dd8d48988d116941735","name":"Bar","pluralName":"Bars","shortName":"Bar","icon":{"prefix":"https:\/\/ss3.4sqi.net\/img\/categories_v2\/nightlife\/pub_","suffix":".png"},"primary":true}],"verified":false,"stats":{"tipCount":0,"usersCount":0,"checkinsCount":0,"visitsCount":0},"beenHere":{"count":0,"lastCheckinExpiredAt":0,"marked":false,"unconfirmedCount":0},"hereNow":{"count":0,"summary":"Nobody here","groups":[]},"referralId":"v-1533269754","venueChains":[],"hasPerk":false},{"id":"4f7196bfe4b02fc4361b350a","name":"kamat restuarant","contact":{},"location":{"address":"Abids, Hyderabad, Andhra Pradesh","lat":17.3860048374964,"lng":78.47701206178155,"labeledLatLngs":[{"label":"display","lat":17.3860048374964,"lng":78.47701206178155}],"distance":5334,"cc":"IN","state":"Andhra Pradesh","country":"India","formattedAddress":["Abids, Hyderabad, Andhra Pradesh","Andhra Pradesh","India"]},"categories":[{"id":"4bf58dd8d48988d10f941735","name":"Indian Restaurant","pluralName":"Indian Restaurants","shortName":"Indian","icon":{"prefix":"https:\/\/ss3.4sqi.net\/img\/categories_v2\/food\/indian_","suffix":".png"},"primary":true}],"verified":false,"stats":{"tipCount":0,"usersCount":0,"checkinsCount":0,"visitsCount":0},"beenHere":{"count":0,"lastCheckinExpiredAt":0,"marked":false,"unconfirmedCount":0},"hereNow":{"count":0,"summary":"Nobody here","groups":[]},"referralId":"v-1533269754","venueChains":[],"hasPerk":false},{"id":"4c237f489085d13af8f487cc","name":"Haridwar Restuarant","contact":{},"location":{"address":"Sindhi Colony","crossStreet":"PG Road","lat":17.440228602253,"lng":78.48306683401537,"labeledLatLngs":[{"label":"display","lat":17.440228602253,"lng":78.48306683401537}],"distance":5445,"cc":"IN","city":"Secunderabad","state":"Telangana","country":"India","formattedAddress":["Sindhi Colony (PG Road)","Secunderabad","Telangana","India"]},"categories":[{"id":"4bf58dd8d48988d10f941735","name":"Indian Restaurant","pluralName":"Indian Restaurants","shortName":"Indian","icon":{"prefix":"https:\/\/ss3.4sqi.net\/img\/categories_v2\/food\/indian_","suffix":".png"},"primary":true}],"verified":false,"stats":{"tipCount":0,"usersCount":0,"checkinsCount":0,"visitsCount":0},"beenHere":{"count":0,"lastCheckinExpiredAt":0,"marked":false,"unconfirmedCount":0},"hereNow":{"count":0,"summary":"Nobody here","groups":[]},"referralId":"v-1533269754","venueChains":[],"hasPerk":false},{"id":"50090d8fe4b008cd49c6a8e6","name":"Shruthi Restuarant","contact":{},"location":{"lat":17.374526977539062,"lng":78.55097198486328,"labeledLatLngs":[{"label":"display","lat":17.374526977539062,"lng":78.55097198486328}],"distance":12852,"cc":"IN","country":"India","formattedAddress":["India"]},"categories":[{"id":"4bf58dd8d48988d10f941735","name":"Indian Restaurant","pluralName":"Indian Restaurants","shortName":"Indian","icon":{"prefix":"https:\/\/ss3.4sqi.net\/img\/categories_v2\/food\/indian_","suffix":".png"},"primary":true}],"verified":false,"stats":{"tipCount":0,"usersCount":0,"checkinsCount":0,"visitsCount":0},"beenHere":{"count":0,"lastCheckinExpiredAt":0,"marked":false,"unconfirmedCount":0},"hereNow":{"count":0,"summary":"Nobody here","groups":[]},"referralId":"v-1533269754","venueChains":[],"hasPerk":false}]}}